Timestamp,AccX,AccY,AccZ,GyroX,GyroY,GyroZ,Roll,Pitch,YawIMU,MagX,MagY,MagZ,Lat,Lon,Alt,Speed,Course,Sats,PDOP,HDOP,VDOP
2025-06-06T17:50:10.540172,0.010,-0.032,-0.910,-13.489,-6.836,17.944,14.293,-29.949,40.419,-128305380748808945664.000,0,0,0,37.863159,-122.313171,1.0,3.370,172.15,36,0.00,0.40
2025-06-06T17:55:01.056693,-0.028,0.040,-0.914,-0.244,2.625,-2.075,14.431,-19.237,-35.843,-128305380748808945664.000,0,0,0,37.862732,-122.313187,-8.0,0.444,103.74,35,0.00,0.60
2025-06-06T17:55:01.150849,0.032,-0.949,-0.244,2.625,-2.075,14.431,-19.237,-35.843,-128305380748808945664.000,0,0,0,37.862732,-122.313187,-8.0,0.444,103.74,35,0.00,0.60,0.00
2025-06-06T17:55:01.202725,0.030,-0.986,3.235,2.869,-3.540,14.442,-19.517,-36.140,-128305380748808945664.000,0,0,0,37.862732,-122.313187,-8.0,0.444,103.74,35,0.00,0.60,0.00
2025-06-06T17:55:01.315884,0.022,-1.016,5.005,4.333,-3.662,14.431,-19.902,-36.513,-128305380748808945664.000,0,0,0,37.862736,-122.313187,-8.0,0.425,103.74,35,0.00,0.60,0.00
2025-06-06T17:55:01.405564,0.020,-1.023,5.981,4.395,-1.648,14.442,-20.391,-36.782,-128305380748808945664.000,0,0,0,37.862736,-122.313187,-8.0,0.425,103.74,35,0.00,0.60,0.00
2025-06-06T17:55:01.504014,0.010,-1.011,5.859,4.028,2.014,14.431,-20.825,-36.727,-128305380748808945664.000,0,0,0,37.862736,-122.313187,-8.0,0.407,103.74,35,0.00,0.60,0.00
2025-06-06T17:55:01.606530,-0.005,-0.978,5.005,1.892,6.592,14.458,-21.055,-36.255,-128305380748808945664.000,0,0,0,37.862736,-122.313187,-8.0,0.407,103.74,35,0.00,0.60,0.00
2025-06-06T17:55:01.708779,-0.030,-0.936,2.014,0.732,10.559,173.787,-20.737,-34.096,-128305380748808945664.000,0,0,0,37.862736,-122.313187,-8.0,0.351,103.74,35,0.00,0.60,0.00
2025-06-06T17:55:01.817889,-0.028,-0.888,2.014,0.732,10.559,14.447,-20.737,-34.096,-128305380748808945664.000,0,0,0,37.862736,-122.313187,-8.0,0.351,103.74,35,0.00,0.60,0.00
2025-06-06T17:55:01.908543,-0.035,-0.864,2.014,0.732,10.559,14.447,-20.171,-32.552,-128305380748808945664.000,0,0,0,37.862736,-122.313187,-8.0,0.314,103.74,35,0.00,0.60,0.00
2025-06-06T17:55:02.013008,-0.022,-0.868,2.014,0.732,10.559,14.425,-19.528,-30.839,-128305380748808945664.000,0,0,0,37.862736,-122.313187,-8.0,0.314,103.74,35,0.00,0.60,0.00
2025-06-06T17:55:02.123362,-0.008,-0.904,2.014,0.732,10.559,14.447,-18.715,-29.163,-128305380748808945664.000,0,0,0,37.862736,-122.313187,-8.0,0.314,103.74,35,0.00,0.60,0.00
2025-06-06T17:55:02.205075,0.009,-0.965,2.014,0.732,10.559,14.442,-17.930,-27.806,-128305380748808945664.000,0,0,0,37.862736,-122.313187,-8.0,0.314,103.74,35,0.00,0.60,0.00
2025-06-06T17:55:02.307908,0.042,-1.017,-11.780,-2.502,3.052,14.447,-17.446,-27.164,-128305380748808945664.000,0,0,0,37.862736,-122.313187,-8.0,0.296,103.74,35,0.00,0.60,0.00
2025-06-06T17:55:02.400420,0.087,-1.027,-5.188,-1.282,-3.296,14.442,-17.331,-27.252,-128305380748808945664.000,0,0,0,37.862736,-122.313187,-8.0,0.296,103.74,35,0.00,0.60,0.00
2025-06-06T17:55:02.508835,0.084,-1.016,2.441,3.113,-8.972,14.458,-17.584,-27.916,-128305380748808945664.000,0,0,0,37.862736,-122.313187,-8.0,0.277,103.74,35,0.00,0.60,0.00
2025-06-06T17:55:02.600646,0.059,-0.988,9.521,7.080,-12.634,14.447,-18.331,-29.070,-128305380748808945664.000,0,0,0,37.862736,-122.313187,-8.0,0.277,103.74,35,0.00,0.60,0.00
2025-06-06T17:55:02.709942,0.029,-0.939,16.785,6.958,-13.000,14.469,-19.243,-30.366,-128305380748808945664.000,0,0,0,37.862736,-122.313187,-8.0,0.296,103.74,35,0.00,0.60,0.00
2025-06-06T17:55:02.811190,-0.013,-0.892,18.738,7.446,-11.841,14.447,-20.204,-31.619,-128305380748808945664.000,0,0,0,37.862736,-122.313187,-8.0,0.296,103.74,35,0.00,0.60,0.00
2025-06-06T17:55:02.906994,-0.023,-0.881,18.738,7.446,-11.841,14.469,-21.066,-32.465,-128305380748808945664.000,0,0,0,37.862736,-122.313187,-8.0,0.314,103.74,35,0.00,0.60,0.00
2025-06-06T17:55:03.008568,-0.031,-0.902,18.738,7.446,-11.841,14.458,-21.412,-32.465,-128305380748808945664.000,0,0,0,37.862736,-122.313187,-8.0,0.314,103.74,35,0.00,0.60,0.00
2025-06-06T17:55:03.105473,-0.042,-0.947,18.738,7.446,-11.841,14.442,-21.149,-31.608,-128305380748808945664.000,0,0,0,37.862736,-122.313187,-8.0,0.351,103.74,35,0.00,0.60,0.00
2025-06-06T17:55:03.201247,-0.025,-0.987,-8.789,-4.822,15.991,14.447,-20.424,-30.157,-128305380748808945664.000,0,0,0,37.862736,-122.313187,-8.0,0.351,103.74,35,0.00,0.60,0.00
2025-06-06T17:55:03.310366,-0.011,-1.022,-12.817,-6.714,17.395,14.442,-19.429,-28.444,-128305380748808945664.000,0,0,0,37.862736,-122.313187,-8.0,0.351,103.74,35,0.00,0.60,0.00
2025-06-06T17:55:03.404203,0.014,-1.026,-16.541,-4.822,17.090,14.442,-18.539,-26.735,-128305380748808945664.000,0,0,0,37.862736,-122.313187,-8.0,0.351,103.74,35,0.00,0.60,0.00
2025-06-06T17:55:03.501490,0.051,-0.988,-15.015,-5.005,17.578,14.447,-17.737,-24.988,-128305380748808945664.000,0,0,0,37.862736,-122.313187,-8.0,0.370,103.74,35,0.00,0.60,0.00
2025-06-06T17:55:03.603473,0.058,-0.923,-10.498,-3.479,13.123,14.431,-17.062,-23.428,-128305380748808945664.000,0,0,0,37.862736,-122.313187,-8.0,0.370,103.74,35,0.00,0.60,0.00
2025-06-06T17:55:03.696016,0.040,-0.849,-2.625,-1.648,1.404,14.458,-16.787,-22.786,-128305380748808945664.000,0,0,0,37.862736,-122.313187,-8.0,0.425,103.74,35,0.00,0.60,0.00
2025-06-06T17:55:03.802168,0.036,-0.810,7.812,-2.747,-12.268,14.447,-16.732,-23.478,-128305380748808945664.000,0,0,0,37.862736,-122.313187,-8.0,0.425,103.74,35,0.00,0.60,0.00
2025-06-06T17:55:03.903487,-0.013,-0.854,13.672,-2.014,-24.780,14.458,-16.771,-25.505,-128305380748808945664.000,0,0,0,37.862736,-122.313187,-8.0,0.463,103.74,35,0.00,0.60,0.00
2025-06-06T17:55:04.006718,-0.016,-0.925,13.672,-2.014,-24.780,14.447,-16.875,-28.004,-128305380748808945664.000,0,0,0,37.862736,-122.313187,-8.0,0.463,103.74,35,0.00,0.60,0.00
2025-06-06T17:55:04.109200,-0.028,-1.009,13.672,-2.014,-24.780,14.442,-16.721,-30.064,-128305380748808945664.000,0,0,0,37.862736,-122.313187,-8.0,0.463,103.74,35,0.00,0.60,0.00
2025-06-06T17:55:04.201696,-0.017,-1.063,13.672,-2.014,-24.780,14.458,-16.512,-31.404,-128305380748808945664.000,0,0,0,37.862736,-122.313187,-8.0,0.500,103.74,35,0.00,0.60,0.00
2025-06-06T17:55:04.298491,0.000,-1.073,4.089,-3.906,1.038,14.442,-16.177,-31.679,-128305380748808945664.000,0,0,0,37.862736,-122.313187,-8.0,0.500,103.74,35,0.00,0.60,0.00
2025-06-06T17:55:04.403920,0.000,-1.054,1.221,-3.784,6.836,14.458,-15.727,-31.190,-128305380748808945664.000,0,0,0,37.862736,-122.313187,-8.0,0.500,103.74,35,0.00,0.60,0.00
2025-06-06T17:55:04.497220,0.002,-1.000,-1.404,-2.991,9.521,14.447,-15.266,-30.339,-128305380748808945664.000,0,0,0,37.862736,-122.313187,-8.0,0.463,103.74,35,0.00,0.60,0.00
2025-06-06T17:55:04.601960,0.000,-0.934,0.488,-5.310,10.559,14.442,-14.667,-29.312,-128305380748808945664.000,0,0,0,37.862736,-122.313187,-8.0,0.463,103.74,35,0.00,0.60,0.00
2025-06-06T17:55:04.706590,-0.012,-0.901,-1.465,-5.066,9.583,14.447,-13.953,-28.295,-128305380748808945664.000,0,0,0,37.862736,-122.313187,-8.0,0.388,103.74,35,0.00,0.60,0.00
2025-06-06T17:55:04.792520,-0.002,-0.902,-1.465,-5.066,9.583,14.442,-13.392,-27.537,-128305380748808945664.000,0,0,0,37.862736,-122.313187,-8.0,0.388,103.74,35,0.00,0.60,0.00
2025-06-06T17:55:04.902441,0.028,-0.914,-1.465,-5.066,9.583,14.447,-12.931,-27.131,-128305380748808945664.000,0,0,0,37.862736,-122.313187,-8.0,0.314,103.74,35,0.00,0.60,0.00
2025-06-06T17:55:05.004231,0.029,-0.945,1.526,-1.465,-6.226,14.442,-12.755,-27.394,-128305380748808945664.000,0,0,0,37.862736,-122.313187,-8.0,0.314,103.74,35,0.00,0.60,0.00
2025-06-06T17:55:05.094882,0.023,-0.963,4.700,0.732,-13.733,14.442,-13.019,-28.504,-128305380748808945664.000,0,0,0,37.862736,-122.313187,-8.0,0.259,103.74,35,0.00,0.60,0.00
2025-06-06T17:55:05.193310,0.013,-0.962,8.972,-0.305,-15.808,14.447,-13.409,-30.042,-128305380748808945664.000,0,0,0,37.862736,-122.313187,-8.0,0.259,103.74,35,0.00,0.60,0.00
2025-06-06T17:55:05.299579,-0.028,-0.958,10.010,-0.488,-14.954,14.458,-13.777,-31.586,-128305380748808945664.000,0,0,0,37.862736,-122.313187,-8.0,0.222,103.74,35,0.00,0.60,0.00
2025-06-06T17:55:05.404234,-0.058,-0.949,10.010,-0.488,-14.954,14.458,-14.079,-32.833,-128305380748808945664.000,0,0,0,37.862736,-122.313187,-8.0,0.222,103.74,35,0.00,0.60,0.00
2025-06-06T17:55:05.492195,-0.049,-0.932,10.010,-0.488,-14.954,14.447,-14.288,-33.376,-128305380748808945664.000,0,0,0,37.862736,-122.313187,-8.0,0.222,103.74,35,0.00,0.60,0.00
2025-06-06T17:55:05.599096,-0.045,-0.942,10.010,-0.488,-14.954,14.458,-14.227,-33.085,-128305380748808945664.000,0,0,0,37.862736,-122.313187,-8.0,0.222,103.74,35,0.00,0.60,0.00
2025-06-06T17:55:05.704699,-0.030,-0.966,10.010,-0.488,-14.954,14.458,-14.216,-32.311,-128305380748808945664.000,0,0,0,37.862740,-122.313187,-8.0,0.203,103.74,35,0.00,0.60,0.00
2025-06-06T17:55:05.792082,0.002,-0.972,-15.381,4.456,8.240,14.447,-14.365,-31.410,-128305380748808945664.000,0,0,0,37.862740,-122.313187,-8.0,0.203,103.74,35,0.00,0.60,0.00
2025-06-06T17:55:05.886385,0.030,-0.965,-13.245,4.028,2.258,14.474,-14.694,-30.899,-128305380748808945664.000,0,0,0,37.862740,-122.313187,-8.0,0.203,103.74,35,0.00,0.60,0.00
2025-06-06T17:55:05.998035,0.043,-0.953,-8.484,3.601,-7.568,14.469,-15.216,-31.245,-128305380748808945664.000,0,0,0,37.862740,-122.313187,-8.0,0.203,103.74,35,0.00,0.60,0.00
2025-06-06T17:55:06.090869,0.033,-0.938,-1.465,0.854,-16.724,14.458,-15.732,-32.580,-128305380748808945664.000,0,0,0,37.862740,-122.313187,-8.0,0.222,103.74,35,0.00,0.60,0.00
2025-06-06T17:55:06.193605,0.020,-0.923,3.479,-1.526,-21.729,14.447,-16.068,-34.601,-128305380748808945664.000,0,0,0,37.862740,-122.313187,-8.0,0.222,103.74,35,0.00,0.60,0.00
2025-06-06T17:55:06.287276,0.030,-0.925,5.005,-1.526,-19.348,14.447,-16.282,-36.689,-128305380748808945664.000,0,0,0,37.862740,-122.313187,-8.0,0.259,103.74,35,0.00,0.60,0.00
2025-06-06T17:55:06.394974,0.038,-0.948,6.592,-1.221,-13.184,14.458,-16.370,-38.243,-128305380748808945664.000,0,0,0,37.862740,-122.313187,-8.0,0.259,103.74,35,0.00,0.60,0.00
2025-06-06T17:55:06.486815,0.030,-0.967,7.507,0.977,-8.179,14.442,-16.523,-39.243,-128305380748808945664.000,0,0,0,37.862740,-122.313187,-8.0,0.296,103.74,35,0.00,0.60,0.00
2025-06-06T17:55:06.596198,0.012,-0.961,10.559,0.793,-6.714,14.458,-16.732,-39.946,-128305380748808945664.000,0,0,0,37.862740,-122.313187,-8.0,0.296,103.74,35,0.00,0.60,0.00
2025-06-06T17:55:06.693551,-0.021,-0.956,11.963,0.061,-9.094,14.458,-16.913,-40.743,-128305380748808945664.000,0,0,0,37.862740,-122.313187,-8.0,0.333,103.74,35,0.00,0.60,0.00
2025-06-06T17:55:06.789427,-0.032,-0.948,10.864,-2.380,-10.376,14.458,-17.122,-41.770,-128305380748808945664.000,0,0,0,37.862740,-122.313187,-8.0,0.333,103.74,35,0.00,0.60,0.00
2025-06-06T17:55:06.893744,-0.041,-0.956,7.080,-7.202,-7.812,14.458,-16.880,-42.676,-128305380748808945664.000,0,0,0,37.862740,-122.313187,-8.0,0.370,103.74,35,0.00,0.60,0.00
2025-06-06T17:55:06.989838,-0.034,-0.967,0.610,-10.315,-4.211,14.447,-16.188,-43.248,-128305380748808945664.000,0,0,0,37.862740,-122.313187,-8.0,0.370,103.74,35,0.00,0.60,0.00
2025-06-06T17:55:07.093158,-0.010,-0.975,-3.479,-14.343,-0.549,14.458,-15.007,-43.429,-128305380748808945664.000,0,0,0,37.862740,-122.313187,-8.0,0.370,103.74,35,0.00,0.60,0.00
2025-06-06T17:55:07.187859,0.009,-0.977,-6.104,-14.648,-0.061,14.458,-13.563,-43.412,-128305380748808945664.000,0,0,0,37.862740,-122.313187,-8.0,0.388,103.74,35,0.00,0.60,0.00
2025-06-06T17:55:07.290885,0.038,-0.963,-4.822,-12.695,-3.601,14.442,-12.266,-43.599,-128305380748808945664.000,0,0,0,37.862740,-122.313187,-8.0,0.425,103.74,35,0.00,0.60,0.00
2025-06-06T17:55:07.392036,0.052,-0.947,1.282,-11.902,-10.742,14.442,-11.239,-44.363,-128305380748808945664.000,0,0,0,37.862740,-122.313187,-8.0,0.425,103.74,35,0.00,0.60,0.00
2025-06-06T17:55:07.490689,0.033,-0.941,9.216,-11.292,-20.813,14.458,-10.503,-46.027,-128305380748808945664.000,0,0,0,37.862740,-122.313187,-8.0,0.481,103.74,35,0.00,0.60,0.00
2025-06-06T17:55:07.588802,0.012,-0.938,16.174,-11.292,-29.663,14.458,-10.074,-48.675,-128305380748808945664.000,0,0,0,37.862740,-122.313187,-8.0,0.481,103.74,35,0.00,0.60,0.00
2025-06-06T17:55:07.692510,-0.020,-0.934,20.752,-13.000,-33.081,14.442,-9.734,-51.888,-128305380748808945664.000,0,0,0,37.862740,-122.313187,-8.0,0.555,103.74,35,0.00,0.60,0.00
2025-06-06T17:55:07.791107,-0.043,-0.935,20.752,-13.000,-33.081,14.447,-9.404,-55.157,-128305380748808945664.000,0,0,0,37.862740,-122.313187,-8.0,0.555,103.74,35,0.00,0.60,0.00
2025-06-06T17:55:07.889825,-0.050,-0.928,20.752,-13.000,-33.081,14.447,-8.910,-58.030,-128305380748808945664.000,0,0,0,37.862743,-122.313187,-8.0,0.629,103.74,35,0.00,0.60,0.00
2025-06-06T17:55:07.990193,-0.046,-0.932,20.752,-13.000,-33.081,14.447,-7.954,-60.123,-128305380748808945664.000,0,0,0,37.862743,-122.313187,-8.0,0.629,103.74,35,0.00,0.60,0.00
2025-06-06T17:55:08.081163,-0.033,-0.942,20.752,-13.000,-33.081,14.442,-6.652,-61.540,-128305380748808945664.000,0,0,0,37.862743,-122.313187,-8.0,0.685,103.74,35,0.00,0.60,0.00
2025-06-06T17:55:08.192034,-0.044,-0.958,20.752,-13.000,-33.081,14.447,-5.081,-62.512,-128305380748808945664.000,0,0,0,37.862743,-122.313187,-8.0,0.685,103.74,35,0.00,0.60,0.00
2025-06-06T17:55:08.287742,-0.042,-0.949,20.752,-13.000,-33.081,14.469,-3.549,-63.452,-128305380748808945664.000,0,0,0,37.862743,-122.313187,-8.0,0.685,103.74,35,0.00,0.60,0.00
2025-06-06T17:55:08.391740,-0.031,-0.931,20.752,-13.000,-33.081,14.491,-2.219,-64.633,-128305380748808945664.000,0,0,0,37.862743,-122.313187,-8.0,0.740,103.74,35,0.00,0.60,0.00
2025-06-06T17:55:08.477696,-0.034,-0.924,-3.845,-16.663,-18.616,14.458,-1.165,-66.270,-128305380748808945664.000,0,0,0,37.862743,-122.313187,-8.0,0.777,103.74,35,0.00,0.60,0.00
2025-06-06T17:55:08.588425,-0.018,-0.911,-3.479,-15.869,-23.865,14.458,-0.483,-68.483,-128305380748808945664.000,0,0,0,37.862743,-122.313187,-8.0,0.777,103.74,35,0.00,0.60,0.00
2025-06-06T17:55:08.675522,-0.012,-0.888,-1.221,-17.334,-26.245,14.469,0.143,-71.021,-128305380748808945664.000,0,0,0,37.862743,-122.313187,-8.0,0.796,103.74,35,0.00,0.60,0.00
2025-06-06T17:55:08.789594,-0.015,-0.884,-0.183,-16.113,-30.090,14.469,0.604,-73.867,-128305380748808945664.000,0,0,0,37.862743,-122.313187,-8.0,0.796,103.74,35,0.00,0.60,0.00
2025-06-06T17:55:08.876401,-0.008,-0.866,-0.183,-16.113,-30.090,14.474,0.884,-77.091,-128305380748808945664.000,0,0,0,37.862743,-122.313187,-8.0,0.833,103.74,35,0.00,0.60,0.00
2025-06-06T17:55:08.984270,-0.012,-0.866,-0.183,-16.113,-30.090,14.474,1.093,-80.585,-128305380748808945664.000,0,0,0,37.862743,-122.313187,-8.0,0.833,103.74,35,0.00,0.60,0.00
2025-06-06T17:55:09.086264,-0.005,-0.876,-0.183,-16.113,-30.090,14.469,1.022,-84.397,-128305380748808945664.000,0,0,0,37.862743,-122.313187,-8.0,0.833,103.74,35,0.00,0.60,0.00
2025-06-06T17:55:09.175570,0.000,-0.878,-0.183,-16.113,-30.090,14.474,0.813,-88.226,-128305380748808945664.000,0,0,0,37.862743,-122.313187,-8.0,0.888,103.74,35,0.00,0.60,0.00
2025-06-06T17:55:09.285371,-0.005,-0.882,0.671,-14.221,-33.447,14.485,0.670,-91.752,-128305380748808945664.000,0,0,0,37.862747,-122.313187,-8.0,0.963,103.74,35,0.00,0.60,0.00
2025-06-06T17:55:09.377194,-0.015,-0.883,0.671,-14.221,-33.447,14.458,0.632,-94.735,-128305380748808945664.000,0,0,0,37.862747,-122.313187,-8.0,0.963,103.74,35,0.00,0.60,0.00
2025-06-06T17:55:09.485136,-0.008,-0.880,0.671,-14.221,-33.447,14.474,0.791,-97.042,-128305380748808945664.000,0,0,0,37.862747,-122.313187,-8.0,0.963,103.74,35,0.00,0.60,0.00
2025-06-06T17:55:09.569876,-0.009,-0.884,0.671,-14.221,-33.447,14.447,1.104,-98.860,-128305380748808945664.000,0,0,0,37.862747,-122.313187,-8.0,1.018,103.74,35,0.00,0.60,0.00
2025-06-06T17:55:09.681869,-0.036,-0.901,0.671,-14.221,-33.447,14.469,1.379,-100.629,-128305380748808945664.000,0,0,0,37.862747,-122.313187,-8.0,1.055,103.74,35,0.00,0.60,0.00
2025-06-06T17:55:09.779639,-0.030,-0.912,0.671,-14.221,-33.447,14.485,1.291,-102.607,-128305380748808945664.000,0,0,0,37.862747,-122.313187,-8.0,1.055,103.74,35,0.00,0.60,0.00
2025-06-06T17:55:09.874388,-0.027,-0.921,0.671,-14.221,-33.447,14.474,0.928,-104.683,-128305380748808945664.000,0,0,0,37.862747,-122.313187,-8.0,1.074,103.74,34,0.00,0.60,0.00
2025-06-06T17:55:09.976634,-0.017,-0.935,0.671,-14.221,-33.447,14.474,0.165,-106.837,-128305380748808945664.000,0,0,0,37.862747,-122.313187,-8.0,1.074,103.74,34,0.00,0.60,0.00
2025-06-06T17:55:10.069757,0.013,-0.938,0.671,-14.221,-33.447,14.469,-0.813,-108.891,-128305380748808945664.000,0,0,0,37.862747,-122.313194,-8.0,1.092,103.74,34,0.00,0.60,0.00
2025-06-06T17:55:10.180901,0.026,-0.936,-11.169,2.625,-18.250,14.485,-1.763,-110.748,-128305380748808945664.000,0,0,0,37.862747,-122.313194,-8.0,1.092,103.74,34,0.00,0.60,0.00
2025-06-06T17:55:10.272913,0.011,-0.937,-8.301,2.563,-20.813,14.491,-2.697,-112.698,-128305380748808945664.000,0,0,0,37.862747,-122.313194,-8.0,1.092,103.74,34,0.00,0.60,0.00
2025-06-06T17:55:10.366797,0.008,-0.935,-4.578,2.258,-25.024,14.491,-3.680,-115.043,-128305380748808945664.000,0,0,0,37.862747,-122.313194,-8.0,1.092,103.74,34,0.00,0.60,0.00
2025-06-06T17:55:10.473849,0.012,-0.938,-1.709,1.770,-26.001,14.474,-4.614,-117.625,-128305380748808945664.000,0,0,0,37.862747,-122.313194,-8.0,1.111,306.52,35,0.00,0.60,0.00
2025-06-06T17:55:10.569701,0.008,-0.956,-0.732,2.930,-24.414,14.474,-5.570,-120.146,-128305380748808945664.000,0,0,0,37.862747,-122.313194,-8.0,1.111,306.52,35,0.00,0.60,0.00
2025-06-06T17:55:10.670045,0.004,-0.959,-1.404,4.700,-20.874,14.485,-6.581,-122.393,-128305380748808945664.000,0,0,0,37.862747,-122.313194,-8.0,1.129,303.97,35,0.00,0.60,0.00
2025-06-06T17:55:10.777311,0.013,-0.942,-0.305,4.150,-16.663,14.474,-7.542,-124.233,-128305380748808945664.000,0,0,0,37.862747,-122.313194,-8.0,1.129,303.97,35,0.00,0.60,0.00
2025-06-06T17:55:10.873295,-0.002,-0.932,-0.610,4.211,-12.573,14.474,-8.333,-125.662,-128305380748808945664.000,0,0,0,37.862747,-122.313194,-8.0,1.129,299.79,35,0.00,0.60,0.00
2025-06-06T17:55:10.974495,-0.017,-0.924,-0.610,4.211,-12.573,14.474,-9.091,-126.617,-128305380748808945664.000,0,0,0,37.862747,-122.313194,-8.0,1.129,299.79,35,0.00,0.60,0.00
2025-06-06T17:55:11.069895,0.003,-0.924,-0.610,4.211,-12.573,14.458,-9.575,-126.826,-128305380748808945664.000,0,0,0,37.862747,-122.313194,-8.0,1.111,299.79,35,0.00,0.60,0.00
2025-06-06T17:55:11.175371,0.010,-0.957,-6.836,1.648,6.775,14.474,-9.646,-126.321,-128305380748808945664.000,0,0,0,37.862747,-122.313194,-8.0,1.111,299.79,35,0.00,0.60,0.00
2025-06-06T17:55:11.267959,0.000,-1.014,-7.812,2.258,7.202,14.458,-9.641,-125.579,-128305380748808945664.000,0,0,0,37.862747,-122.313194,-8.0,1.074,299.79,35,0.00,0.60,0.00
2025-06-06T17:55:11.371049,0.011,-1.054,-4.639,2.502,3.845,14.469,-9.723,-125.030,-128305380748808945664.000,0,0,0,37.862747,-122.313194,-8.0,1.074,299.79,35,0.00,0.60,0.00
2025-06-06T17:55:11.468780,0.006,-1.068,0.061,4.639,-2.197,14.469,-10.025,-124.986,-128305380748808945664.000,0,0,0,37.862747,-122.313194,-8.0,1.074,299.79,35,0.00,0.60,0.00
2025-06-06T17:55:11.570968,-0.011,-1.040,3.052,9.583,-9.094,14.458,-10.898,-125.623,-128305380748808945664.000,0,0,0,37.862747,-122.313194,-8.0,1.037,299.79,35,0.00,0.60,0.00
2025-06-06T17:55:11.669919,-0.004,-0.967,3.052,9.583,-9.094,14.469,-12.316,-126.766,-128305380748808945664.000,0,0,0,37.862747,-122.313194,-8.0,1.000,299.79,35,0.00,0.60,0.00
2025-06-06T17:55:11.769098,-0.012,-0.890,3.052,9.583,-9.094,14.458,-13.931,-127.875,-128305380748808945664.000,0,0,0,37.862747,-122.313194,-8.0,1.000,299.79,35,0.00,0.60,0.00
2025-06-06T17:55:11.871761,-0.094,-0.831,3.052,9.583,-9.094,14.469,-15.623,-128.688,-128305380748808945664.000,0,0,0,37.862747,-122.313194,-8.0,1.000,299.79,35,0.00,0.60,0.00
2025-06-06T17:55:11.975395,0.012,-0.820,-3.601,10.559,9.949,14.458,-16.760,-128.123,-128305380748808945664.000,0,0,0,37.862747,-122.313194,-8.0,0.963,299.79,35,0.00,0.60,0.00
2025-06-06T17:55:12.076769,0.036,-0.860,-3.052,5.798,16.235,14.469,-17.177,-126.799,-128305380748808945664.000,0,0,0,37.862747,-122.313194,-8.0,0.907,299.79,35,0.00,0.60,0.00
2025-06-06T17:55:12.162867,0.045,-0.939,-1.160,-0.793,14.587,14.469,-17.205,-125.316,-128305380748808945664.000,0,0,0,37.862747,-122.313194,-8.0,0.907,299.79,35,0.00,0.60,0.00
2025-06-06T17:55:12.271326,-0.001,-0.971,-4.150,-1.770,20.569,14.447,-16.749,-123.448,-128305380748808945664.000,0,0,0,37.862747,-122.313194,-8.0,0.907,299.79,35,0.00,0.60,0.00
2025-06-06T17:55:12.367217,-0.062,-1.015,-5.310,-1.587,19.470,14.469,-16.013,-121.410,-128305380748808945664.000,0,0,0,37.862747,-122.313194,-8.0,0.814,299.79,35,0.00,0.60,0.00
2025-06-06T17:55:12.467011,0.016,-1.007,-0.122,-0.305,12.756,14.458,-15.524,-119.888,-128305380748808945664.000,0,0,0,37.862747,-122.313194,-8.0,0.722,299.79,35,0.00,0.60,0.00
2025-06-06T17:55:12.571005,-0.031,-0.975,-1.221,0.916,13.855,14.447,-15.117,-118.515,-128305380748808945664.000,0,0,0,37.862747,-122.313194,-8.0,0.722,299.79,35,0.00,0.60,0.00
2025-06-06T17:55:12.672033,-0.005,-0.944,-2.014,0.183,11.292,14.447,-14.881,-117.279,-128305380748808945664.000,0,0,0,37.862747,-122.313194,-8.0,0.722,299.79,35,0.00,0.60,0.00
2025-06-06T17:55:12.762840,-0.012,-0.919,-2.014,0.183,11.292,14.469,-14.557,-116.175,-128305380748808945664.000,0,0,0,37.862747,-122.313194,-8.0,0.259,299.79,35,0.00,0.60,0.00
2025-06-06T17:55:12.863285,-0.012,-0.917,-2.014,0.183,11.292,14.458,-14.310,-115.142,-128305380748808945664.000,0,0,0,37.862747,-122.313194,-8.0,0.222,299.79,35,0.00,0.60,0.00
2025-06-06T17:55:12.961430,0.003,-0.944,-2.014,0.183,11.292,14.447,-14.117,-114.423,-128305380748808945664.000,0,0,0,37.862747,-122.313194,-8.0,0.222,299.79,35,0.00,0.60,0.00
2025-06-06T17:55:13.069560,-0.007,-0.971,-4.578,2.136,2.502,14.458,-14.079,-114.027,-128305380748808945664.000,0,0,0,37.862747,-122.313194,-8.0,0.222,299.79,35,0.00,0.60,0.00
2025-06-06T17:55:13.153208,0.010,-0.977,-4.578,2.136,2.502,14.485,-14.370,-114.099,-128305380748808945664.000,0,0,0,37.862747,-122.313194,-8.0,0.203,299.79,35,0.00,0.60,0.00
2025-06-06T17:55:13.269102,-0.000,-0.972,-1.892,3.479,-2.808,14.458,-14.733,-114.362,-128305380748808945664.000,0,0,0,37.862747,-122.313194,-8.0,0.203,299.79,35,0.00,0.60,0.00
2025-06-06T17:55:13.358962,-0.010,-0.947,-3.235,3.540,-1.343,14.447,-15.178,-114.598,-128305380748808945664.000,0,0,0,37.862747,-122.313202,-8.0,0.166,299.79,35,0.00,0.60,0.00
2025-06-06T17:55:13.467282,0.001,-0.929,-4.211,1.587,4.639,14.458,-15.408,-114.390,-128305380748808945664.000,0,0,0,37.862747,-122.313202,-8.0,0.166,299.79,35,0.00,0.60,0.00
2025-06-06T17:55:13.569897,0.003,-0.915,-4.517,-0.366,7.935,14.469,-15.266,-113.736,-128305380748808945664.000,0,0,0,37.862747,-122.313202,-8.0,0.166,299.79,35,0.00,0.60,0.00
2025-06-06T17:55:13.663587,-0.004,-0.954,-4.517,-0.732,7.935,14.447,-14.908,-112.857,-128305380748808945664.000,0,0,0,37.862747,-122.313202,-8.0,0.166,299.79,35,0.00,0.60,0.00
2025-06-06T17:55:13.756566,-0.009,-1.003,-4.517,-0.732,7.935,14.442,-14.612,-112.132,-128305380748808945664.000,0,0,0,37.862747,-122.313202,-8.0,0.166,299.79,35,0.00,0.60,0.00
2025-06-06T17:55:13.863666,-0.023,-1.000,0.488,0.732,5.920,14.447,-14.431,-111.594,-128305380748808945664.000,0,0,0,37.862747,-122.313202,-8.0,0.166,299.79,35,0.00,0.60,0.00
2025-06-06T17:55:13.955924,-0.026,-0.996,0.488,0.732,5.920,14.447,-14.573,-111.160,-128305380748808945664.000,0,0,0,37.862747,-122.313202,-8.0,0.166,299.79,35,0.00,0.60,0.00
2025-06-06T17:55:14.059776,0.019,-0.965,2.808,5.005,-0.793,14.458,-15.068,-111.088,-128305380748808945664.000,0,0,0,37.862747,-122.313202,-8.0,0.166,299.79,35,0.00,0.60,0.00
2025-06-06T17:55:14.155033,0.042,-0.929,4.578,2.197,-3.113,14.469,-15.474,-111.302,-128305380748808945664.000,0,0,0,37.862747,-122.313202,-8.0,0.185,299.79,35,0.00,0.60,0.00
2025-06-06T17:55:14.262691,-0.003,-0.899,7.141,3.967,-0.122,14.469,-15.721,-111.484,-128305380748808945664.000,0,0,0,37.862747,-122.313202,-8.0,0.185,299.79,35,0.00,0.60,0.00
2025-06-06T17:55:14.356827,-0.006,-0.883,7.141,3.967,-0.122,14.458,-16.084,-111.396,-128305380748808945664.000,0,0,0,37.862747,-122.313202,-8.0,0.203,299.79,35,0.00,0.60,0.00
2025-06-06T17:55:14.461410,-0.003,-0.901,7.141,3.967,-0.122,14.458,-15.958,-111.011,-128305380748808945664.000,0,0,0,37.862747,-122.313202,-8.0,0.185,299.79,35,0.00,0.60,0.00
2025-06-06T17:55:14.563325,-0.004,-0.932,7.141,3.967,-0.122,14.458,-15.634,-110.654,-128305380748808945664.000,0,0,0,37.862747,-122.313202,-8.0,0.185,299.79,35,0.00,0.60,0.00
2025-06-06T17:55:14.656010,-0.017,-0.966,7.141,3.967,-0.122,14.458,-15.551,-110.720,-128305380748808945664.000,0,0,0,37.862747,-122.313202,-8.0,0.185,299.79,35,0.00,0.60,0.00
2025-06-06T17:55:14.756200,0.050,-1.036,7.141,3.967,-0.122,14.447,-15.760,-111.204,-128305380748808945664.000,0,0,0,37.862747,-122.313202,-8.0,0.185,299.79,35,0.00,0.50,0.00
2025-06-06T17:55:14.854980,-0.032,-0.959,-8.179,6.592,7.629,14.474,-16.166,-111.368,-128305380748808945664.000,0,0,0,37.862747,-122.313202,-8.0,0.185,299.79,35,0.00,0.50,0.00
2025-06-06T17:55:14.956995,0.022,-0.947,-11.902,6.226,4.944,14.474,-16.826,-110.847,-128305380748808945664.000,0,0,0,37.862747,-122.313202,-8.0,0.166,299.79,35,0.00,0.50,0.00
2025-06-06T17:55:15.050075,0.024,-0.961,-13.672,5.066,9.705,14.447,-17.249,-110.160,-128305380748808945664.000,0,0,0,37.862747,-122.313202,-8.0,0.166,299.79,35,0.00,0.50,0.00
2025-06-06T17:55:15.157465,0.020,-0.975,-11.353,4.822,9.583,14.458,-17.463,-109.226,-128305380748808945664.000,0,0,0,37.862747,-122.313202,-8.0,0.148,299.79,35,0.00,0.50,0.00
2025-06-06T17:55:15.257699,-0.003,-0.977,-9.766,2.258,6.958,14.469,-17.518,-108.347,-128305380748808945664.000,0,0,0,37.862747,-122.313202,-8.0,0.148,299.79,35,0.00,0.50,0.00
2025-06-06T17:55:15.357748,0.005,-0.948,-9.766,2.258,6.958,14.447,-17.699,-107.754,-128305380748808945664.000,0,0,0,37.862747,-122.313202,-8.0,0.129,299.79,35,0.00,0.50,0.00
2025-06-06T17:55:15.451881,0.013,-0.935,-9.766,2.258,6.958,14.458,-18.276,-107.534,-128305380748808945664.000,0,0,0,37.862747,-122.313202,-8.0,0.129,299.79,35,0.00,0.50,0.00
2025-06-06T17:55:15.555963,-0.003,-0.899,-2.197,10.681,-2.197,14.442,-19.226,-107.682,-128305380748808945664.000,0,0,0,37.862747,-122.313202,-8.0,0.129,299.79,35,0.00,0.50,0.00
2025-06-06T17:55:15.654659,-0.011,-0.882,-2.197,10.681,-2.197,14.447,-20.468,-108.254,-128305380748808945664.000,0,0,0,37.862747,-122.313202,-8.0,0.129,299.79,35,0.00,0.50,0.00
2025-06-06T17:55:15.758144,-0.019,-0.902,-0.549,8.423,-7.935,14.447,-21.621,-109.017,-128305380748808945664.000,0,0,0,37.862747,-122.313202,-8.0,0.092,299.79,35,0.00,0.50,0.00
2025-06-06T17:55:15.858006,0.002,-0.935,-0.549,8.423,-7.935,14.469,-22.423,-109.698,-128305380748808945664.000,0,0,0,37.862747,-122.313202,-8.0,0.092,299.79,35,0.00,0.50,0.00
2025-06-06T17:55:15.944726,-0.014,-0.948,-6.409,5.493,0.366,14.474,-22.961,-109.852,-128305380748808945664.000,0,0,0,37.862743,-122.313202,-8.0,0.092,299.79,35,0.00,0.50,0.00
2025-06-06T17:55:16.058356,0.006,-0.965,-8.728,3.052,4.272,14.458,-23.368,-109.550,-128305380748808945664.000,0,0,0,37.862743,-122.313202,-8.0,0.092,299.79,35,0.00,0.50,0.00
2025-06-06T17:55:16.147739,0.010,-0.968,-9.216,4.395,4.395,14.447,-23.692,-109.127,-128305380748808945664.000,0,0,0,37.862743,-122.313202,-8.0,0.111,299.79,35,0.00,0.50,0.00
2025-06-06T17:55:16.245854,0.069,-0.979,-7.507,4.883,3.845,14.469,-24.148,-108.715,-128305380748808945664.000,0,0,0,37.862743,-122.313202,-8.0,0.111,299.79,35,0.00,0.50,0.00
2025-06-06T17:55:16.359161,0.006,-0.962,-4.211,8.057,2.869,14.458,-24.851,-108.144,-128305380748808945664.000,0,0,0,37.862743,-122.313202,-8.0,0.111,299.79,35,0.00,0.50,0.00
2025-06-06T17:55:16.446872,0.001,-0.934,-3.418,6.653,1.038,14.447,-25.582,-107.990,-128305380748808945664.000,0,0,0,37.862743,-122.313202,-8.0,0.111,299.79,35,0.00,0.50,0.00
2025-06-06T17:55:16.545865,0.014,-0.910,-2.808,6.714,-0.488,14.442,-26.219,-107.990,-128305380748808945664.000,0,0,0,37.862743,-122.313202,-8.0,0.129,299.79,35,0.00,0.50,0.00
2025-06-06T17:55:16.647257,-0.003,-0.899,-1.648,5.371,-1.526,14.458,-26.807,-108.094,-128305380748808945664.000,0,0,0,37.862743,-122.313202,-8.0,0.129,299.79,35,0.00,0.50,0.00
2025-06-06T17:55:16.736713,0.026,-0.916,-1.648,5.371,-1.526,14.442,-27.318,-108.193,-128305380748808945664.000,0,0,0,37.862743,-122.313202,-8.0,0.129,299.79,35,0.00,0.50,0.00
2025-06-06T17:55:16.838406,-0.021,-0.907,-4.089,4.639,2.380,14.442,-27.751,-108.111,-128305380748808945664.000,0,0,0,37.862743,-122.313202,-8.0,0.129,299.79,35,0.00,0.50,0.00
2025-06-06T17:55:16.949957,-0.021,-0.923,-6.653,2.563,3.418,14.447,-28.125,-107.814,-128305380748808945664.000,0,0,0,37.862743,-122.313202,-8.0,0.129,299.79,35,0.00,0.50,0.00
2025-06-06T17:55:17.045861,0.019,-0.944,-8.789,1.770,3.662,14.469,-28.345,-107.430,-128305380748808945664.000,0,0,0,37.862743,-122.313202,-8.0,0.129,299.79,35,0.00,0.50,0.00
2025-06-06T17:55:17.152546,0.011,-0.929,-5.981,1.953,3.540,14.442,-28.504,-107.067,-128305380748808945664.000,0,0,0,37.862743,-122.313202,-8.0,0.129,299.79,35,0.00,0.50,0.00
2025-06-06T17:55:17.238732,0.000,-0.915,-3.296,4.089,1.160,14.442,-28.773,-106.864,-128305380748808945664.000,0,0,0,37.862743,-122.313202,-8.0,0.129,299.79,35,0.00,0.50,0.00
2025-06-06T17:55:17.351410,-0.006,-0.927,-3.418,4.456,1.343,14.458,-29.191,-106.765,-128305380748808945664.000,0,0,0,37.862743,-122.313202,-8.0,0.111,299.79,34,0.00,0.50,0.00
2025-06-06T17:55:17.437574,-0.008,-0.908,-3.418,4.456,1.343,14.469,-29.691,-106.600,-128305380748808945664.000,0,0,0,37.862743,-122.313202,-8.0,0.111,299.79,34,0.00,0.50,0.00
2025-06-06T17:55:17.541153,-0.002,-0.885,-3.967,6.714,3.967,14.458,-30.289,-106.254,-128305380748808945664.000,0,0,0,37.862743,-122.313202,-8.0,0.074,299.79,34,0.00,0.50,0.00
2025-06-06T17:55:17.640526,0.011,-0.895,-5.310,4.761,3.784,14.469,-30.872,-105.875,-128305380748808945664.000,0,0,0,37.862743,-122.313202,-8.0,0.074,299.79,34,0.00,0.50,0.00
2025-06-06T17:55:17.744162,0.016,-0.889,-5.066,2.930,4.700,14.458,-31.240,-105.452,-128305380748808945664.000,0,0,0,37.862743,-122.313202,-8.0,0.055,299.79,34,0.00,0.50,0.00
2025-06-06T17:55:17.836358,0.011,-0.885,-5.737,0.732,3.784,14.458,-31.421,-105.002,-128305380748808945664.000,0,0,0,37.862743,-122.313202,-8.0,0.055,299.79,34,0.00,0.50,0.00
2025-06-06T17:55:17.933453,0.009,-0.900,-5.188,1.099,-0.244,14.442,-31.487,-104.865,-128305380748808945664.000,0,0,0,37.862743,-122.313202,-8.0,0.037,299.79,35,0.00,0.50,0.00
2025-06-06T17:55:18.034474,0.015,-0.916,-2.808,1.648,-3.174,14.431,-31.602,-105.062,-128305380748808945664.000,0,0,0,37.862743,-122.313202,-8.0,0.037,299.79,35,0.00,0.50,0.00
2025-06-06T17:55:18.136461,0.009,-0.916,-2.625,1.526,-5.371,14.447,-31.800,-105.535,-128305380748808945664.000,0,0,0,37.862743,-122.313202,-8.0,0.037,299.79,35,0.00,0.50,0.00
2025-06-06T17:55:18.241804,-0.016,-0.895,-2.136,4.517,-3.967,14.469,-32.432,-106.551,-128305380748808945664.000,0,0,0,37.862743,-122.313202,-8.0,0.037,299.79,35,0.00,0.50,0.00
2025-06-06T17:55:18.443194,-0.019,-0.853,-2.136,4.517,-3.967,14.474,-32.772,-106.815,-128305380748808945664.000,0,0,0,37.862743,-122.313202,-8.0,0.037,299.79,35,0.00,0.50,0.00
2025-06-06T17:55:18.625751,-0.022,-0.006,-0.841,-2.136,4.517,-3.967,14.447,-33.442,-106.353,-128305380748808945664.000,0,0,0,37.862743,-122.313202,-8.0,0.055,299.79,35,0.00,0.50
2025-06-06T17:55:18.662799,-0.034,0.001,-0.871,-6.348,4.517,7.080,14.442,-33.821,-105.743,-128305380748808945664.000,0,0,0,37.862743,-122.313202,-8.0,0.055,299.79,35,0.00,0.50
2025-06-06T17:55:18.748760,0.033,0.001,-0.863,-5.310,4.761,6.165,14.447,-34.305,-105.068,-128305380748808945664.000,0,0,0,37.862743,-122.313202,-8.0,0.055,299.79,35,0.00,0.50
2025-06-06T17:55:18.858160,-0.003,0.022,-0.896,-2.319,3.113,3.967,14.458,-34.673,-104.590,-128305380748808945664.000,0,0,0,37.862743,-122.313202,-8.0,0.055,299.79,35,0.00,0.50
2025-06-06T17:55:18.940978,0.039,-0.002,-0.884,0.854,2.075,2.136,14.447,-34.937,-104.255,-128305380748808945664.000,0,0,0,37.862743,-122.313202,-8.0,0.055,299.79,35,0.00,0.50
2025-06-06T17:55:19.057904,0.025,0.003,-0.888,2.625,-0.061,-0.488,14.442,-35.035,-104.216,-128305380748808945664.000,0,0,0,37.862743,-122.313202,-8.0,0.055,299.79,35,0.00,0.50
2025-06-06T17:55:19.137927,0.000,-0.881,4.700,-1.770,-1.648,14.442,-34.975,-104.348,-128305380748808945664.000,0,0,0,37.862743,-122.313202,-8.0,0.055,299.79,35,0.00,0.50,0.00
2025-06-06T17:55:19.256997,-0.009,-0.003,-0.864,4.700,-1.770,-1.648,14.447,-34.799,-104.568,-128305380748808945664.000,0,0,0,37.862743,-122.313202,-8.0,0.055,299.79,35,0.00,0.50
2025-06-06T17:55:19.340557,-0.002,-0.841,4.700,-1.770,-1.648,158.994,-34.530,-104.766,-128305380748808945664.000,0,0,0,37.862743,-122.313202,-8.0,0.055,299.79,35,0.00,0.50,0.00
2025-06-06T17:55:19.454248,-0.013,0.004,-0.828,0.793,-3.723,-1.160,14.458,-34.222,-104.892,-128305380748808945664.000,0,0,0,37.862743,-122.313202,-8.0,0.055,299.79,35,0.00,0.50
2025-06-06T17:55:19.565746,-0.006,0.006,-0.845,-0.244,-2.930,-1.221,14.447,-34.222,-104.892,-128305380748808945664.000,0,0,0,37.862743,-122.313202,-8.0,0.055,299.79,35,0.00,0.50
2025-06-06T17:55:19.642212,0.003,0.011,-0.885,0.549,-4.150,-0.732,14.431,-33.503,-105.112,-128305380748808945664.000,0,0,0,37.862743,-122.313202,-8.0,0.037,299.79,35,0.00,0.50
2025-06-06T17:55:19.758660,0.026,0.022,-0.929,1.160,-4.395,-1.587,14.447,-33.085,-105.227,-128305380748808945664.000,0,0,0,37.862743,-122.313202,-8.0,0.037,299.79,35,0.00,0.50
2025-06-06T17:55:19.844657,0.000,0.066,-0.993,2.441,-1.953,1.465,14.474,-32.723,-105.359,-128305380748808945664.000,0,0,0,37.862740,-122.313202,-8.0,0.037,299.79,35,0.00,0.50
2025-06-06T17:55:19.956280,0.027,0.009,-0.971,6.653,-1.892,-5.676,14.458,-32.520,-105.699,-128305380748808945664.000,0,0,0,37.862740,-122.313202,-8.0,0.037,299.79,35,0.00,0.50
2025-06-06T17:55:20.039737,-0.004,-0.934,6.287,-1.099,-5.310,14.469,-32.360,-106.293,-128305380748808945664.000,0,0,0,37.862740,-122.313202,-8.0,0.037,299.79,35,0.00,0.50,0.00
2025-06-06T17:55:20.147439,0.002,-0.015,-0.898,4.700,0.305,-3.784,14.447,-32.327,-106.760,-128305380748808945664.000,0,0,0,37.862740,-122.313202,-8.0,0.037,299.79,35,0.00,0.50
2025-06-06T17:55:20.256331,-0.001,-0.013,-0.850,4.700,0.305,-3.784,14.469,-32.344,-106.996,-128305380748808945664.000,0,0,0,37.862740,-122.313202,-8.0,0.037,299.79,35,0.00,0.50
2025-06-06T17:55:20.344089,-0.015,-0.007,-0.831,4.700,0.305,-3.784,160.258,-32.289,-107.089,-128305380748808945664.000,0,0,0,37.862740,-122.313202,-8.0,0.037,299.79,35,0.00,0.50
2025-06-06T17:55:20.455792,-0.002,0.013,-0.833,1.831,-1.648,-3.235,14.458,-32.168,-107.271,-128305380748808945664.000,0,0,0,37.862740,-122.313202,-8.0,0.037,299.79,35,0.00,0.50
2025-06-06T17:55:20.538040,-0.005,0.011,-0.846,3.296,-3.052,-3.723,14.458,-31.954,-107.666,-128305380748808945664.000,0,0,0,37.862740,-122.313202,-8.0,0.037,299.79,35,0.00,0.50
2025-06-06T17:55:20.654618,0.024,0.022,-0.850,4.028,-3.052,-1.465,14.469,-31.657,-107.721,-128305380748808945664.000,0,0,0,37.862740,-122.313202,-8.0,0.018,299.79,35,0.00,0.50
2025-06-06T17:55:20.739991,0.011,-0.885,5.676,-4.272,-4.089,14.458,-31.289,-108.083,-128305380748808945664.000,0,0,0,37.862740,-122.313202,-8.0,0.018,299.79,35,0.00,0.50,0.00
2025-06-06T17:55:20.846108,0.003,0.007,-0.883,6.348,-3.418,-2.747,14.447,-30.899,-108.270,-128305380748808945664.000,0,0,0,37.862740,-122.313202,-8.0,0.018,299.79,35,0.00,0.50
2025-06-06T17:55:20.937116,-0.000,-0.921,6.348,-3.418,-2.747,14.474,-30.421,-108.463,-128305380748808945664.000,0,0,0,37.862740,-122.313202,-8.0,0.018,299.79,35,0.00,0.50,0.00
2025-06-06T17:55:21.046524,-0.011,-0.040,-0.904,6.348,-3.418,-2.747,14.469,-30.020,-108.446,-128305380748808945664.000,0,0,0,37.862740,-122.313202,-8.0,0.018,299.79,35,0.00,0.50
2025-06-06T17:55:21.137212,-0.034,-0.946,6.348,-3.418,-2.747,14.469,-30.020,-108.446,-128305380748808945664.000,0,0,0,37.862740,-122.313202,-8.0,0.018,299.79,35,0.00,0.50,0.00
2025-06-06T17:55:21.244119,0.014,-0.036,-0.964,-2.502,0.793,6.775,14.442,-29.520,-107.639,-128305380748808945664.000,0,0,0,37.862740,-122.313202,-8.0,0.037,299.79,35,0.00,0.50
2025-06-06T17:55:21.355496,-0.022,0.019,-0.977,-2.197,2.075,8.362,14.458,-29.559,-106.985,-128305380748808945664.000,0,0,0,37.862740,-122.313202,-8.0,0.037,299.79,35,0.00,0.50
2025-06-06T17:55:21.437629,0.031,0.035,-0.960,-1.831,2.686,8.179,14.447,-29.822,-106.111,-128305380748808945664.000,0,0,0,37.862740,-122.313202,-8.0,0.037,299.79,35,0.00,0.50
2025-06-06T17:55:21.552195,0.027,0.013,-0.904,-0.732,3.235,5.493,14.447,-30.201,-105.469,-128305380748808945664.000,0,0,0,37.862740,-122.313202,-8.0,0.037,299.79,35,0.00,0.50
2025-06-06T17:55:21.637034,0.058,-0.857,4.639,2.197,-2.808,14.474,-30.493,-105.430,-128305380748808945664.000,0,0,0,37.862740,-122.313202,-8.0,0.055,299.79,35,0.00,0.50,0.00
2025-06-06T17:55:21.749317,-0.014,0.069,-0.810,10.437,-0.244,-7.751,14.458,-30.679,-106.007,-128305380748808945664.000,0,0,0,37.862740,-122.313202,-8.0,0.055,299.79,35,0.00,0.50
2025-06-06T17:55:21.829868,0.076,-0.781,14.404,-3.357,-10.010,14.474,-30.597,-106.919,-128305380748808945664.000,0,0,0,37.862740,-122.313202,-8.0,0.055,299.79,35,0.00,0.50,0.00
2025-06-06T17:55:21.937094,-0.049,0.046,-0.817,13.794,-4.578,-6.348,14.442,-30.372,-107.776,-128305380748808945664.000,0,0,0,37.862740,-122.313202,-8.0,0.055,299.79,35,0.00,0.50
2025-06-06T17:55:22.027308,-0.009,-0.896,13.794,-4.578,-6.348,14.442,-30.372,-107.776,-128305380748808945664.000,0,0,0,37.862740,-122.313202,-8.0,0.055,299.79,35,0.00,0.50,0.00
2025-06-06T17:55:22.136089,0.014,-0.049,-0.979,4.517,-6.470,6.958,14.447,-29.196,-107.721,-128305380748808945664.000,0,0,0,37.862740,-122.313202,-8.0,0.074,299.79,35,0.00,0.50
2025-06-06T17:55:22.246671,0.042,-0.083,-1.046,-5.310,-5.920,12.512,14.458,-28.405,-106.633,-128305380748808945664.000,0,0,0,37.862740,-122.313202,-8.0,0.074,299.79,35,0.00,0.50
2025-06-06T17:55:22.337224,0.045,-0.091,-1.073,-11.780,-5.005,13.306,14.458,-27.702,-105.309,-128305380748808945664.000,0,0,0,37.862740,-122.313202,-8.0,0.074,299.79,35,0.00,0.50
2025-06-06T17:55:22.438943,0.056,-0.047,-1.055,-14.221,-2.686,10.193,14.447,-27.175,-104.117,-128305380748808945664.000,0,0,0,37.862740,-122.313202,-8.0,0.074,299.79,35,0.00,0.50
2025-06-06T17:55:22.532210,0.036,-0.960,-9.888,-2.319,-0.122,14.458,-27.175,-104.117,-128305380748808945664.000,0,0,0,37.862740,-122.313202,-8.0,0.074,299.79,35,0.00,0.50,0.00
2025-06-06T17:55:22.639741,0.023,0.049,-0.874,-3.296,-2.502,-7.874,14.447,-27.175,-104.117,-128305380748808945664.000,0,0,0,37.862740,-122.313202,-8.0,0.074,299.79,35,0.00,0.50
2025-06-06T17:55:22.747184,-0.018,0.048,-0.784,2.075,-1.892,-11.475,14.458,-26.862,-105.397,-128305380748808945664.000,0,0,0,37.862740,-122.313202,-8.0,0.074,299.79,35,0.00,0.50
2025-06-06T17:55:22.828588,-0.042,0.037,-0.738,4.944,-3.113,-9.949,14.447,-26.565,-106.458,-128305380748808945664.000,0,0,0,37.862740,-122.313202,-8.0,0.092,299.79,35,0.00,0.50
2025-06-06T17:55:22.939961,-0.040,0.016,-0.803,4.822,-4.761,-2.380,14.469,-26.120,-106.990,-128305380748808945664.000,0,0,0,37.862740,-122.313202,-8.0,0.092,299.79,35,0.00,0.50
2025-06-06T17:55:23.026279,-0.012,-0.016,-0.917,4.822,-4.761,-2.380,14.458,-25.483,-106.809,-128305380748808945664.000,0,0,0,37.862740,-122.313202,-8.0,0.111,299.79,35,0.00,0.50
2025-06-06T17:55:23.142284,0.012,-0.041,-1.001,1.587,-6.897,8.057,14.474,-24.730,-106.139,-128305380748808945664.000,0,0,0,37.862740,-122.313202,-8.0,0.111,299.79,35,0.00,0.50
2025-06-06T17:55:23.223389,0.013,-0.060,-1.035,-1.160,-2.808,5.737,14.447,-24.153,-105.430,-128305380748808945664.000,0,0,0,37.862743,-122.313202,-8.0,0.166,299.79,35,0.00,0.50
2025-06-06T17:55:23.357837,-0.010,-0.055,-1.038,-1.160,-2.808,5.737,14.474,-24.099,-105.222,-128305380748808945664.000,0,0,0,37.862743,-122.313202,-8.0,0.166,299.79,35,0.00,0.50
2025-06-06T17:55:23.425820,0.006,-0.984,2.625,7.385,-10.864,14.474,-24.565,-105.925,-128305380748808945664.000,0,0,0,37.862743,-122.313202,-8.0,0.166,299.79,35,0.00,0.50,0.00
2025-06-06T17:55:23.539639,-0.045,0.079,-0.901,9.705,10.071,-16.907,14.458,-25.571,-107.424,-128305380748808945664.000,0,0,0,37.862743,-122.313202,-8.0,0.203,299.79,35,0.00,0.50
2025-06-06T17:55:23.642937,-0.052,0.064,-0.822,12.817,12.085,-13.611,14.458,-26.862,-108.979,-128305380748808945664.000,0,0,0,37.862743,-122.313202,-8.0,0.203,299.79,35,0.00,0.50
2025-06-06T17:55:23.736268,-0.061,0.049,-0.838,14.160,9.399,-5.432,14.442,-28.032,-109.902,-128305380748808945664.000,0,0,0,37.862743,-122.313202,-8.0,0.203,299.79,35,0.00,0.50
2025-06-06T17:55:23.837135,-0.006,-0.009,-0.917,14.160,9.399,-5.432,14.447,-28.828,-109.819,-128305380748808945664.000,0,0,0,37.862743,-122.313202,-8.0,0.203,299.79,35,0.00,0.50
2025-06-06T17:55:23.924875,0.026,-0.038,-0.989,4.272,2.441,12.878,14.474,-29.119,-108.858,-128305380748808945664.000,0,0,0,37.862743,-122.313202,-8.0,0.203,299.79,35,0.00,0.50
2025-06-06T17:55:24.038715,0.044,-0.114,-1.002,-7.080,1.343,16.785,14.458,-29.114,-107.298,-128305380748808945664.000,0,0,0,37.862743,-122.313202,-8.0,0.222,299.79,35,0.00,0.50
2025-06-06T17:55:24.119217,-0.107,-0.985,-16.357,-0.488,17.761,14.442,-29.114,-107.298,-128305380748808945664.000,0,0,0,37.862743,-122.313202,-8.0,0.222,299.79,35,0.00,0.50,0.00
2025-06-06T17:55:24.234336,0.023,-0.062,-0.947,-21.667,1.038,13.611,14.447,-28.680,-103.964,-128305380748808945664.000,0,0,0,37.862743,-122.313202,-8.0,0.222,299.79,35,0.00,0.50
2025-06-06T17:55:24.321247,0.013,-0.895,-21.851,-0.427,6.531,14.458,-28.663,-103.035,-128305380748808945664.000,0,0,0,37.862743,-122.313202,-8.0,0.222,299.79,35,0.00,0.50,0.00
2025-06-06T17:55:24.434888,-0.003,0.078,-0.798,-16.418,-2.075,2.991,14.458,-28.531,-102.585,-128305380748808945664.000,0,0,0,37.862743,-122.313202,-8.0,0.240,299.79,35,0.00,0.50
2025-06-06T17:55:24.513452,0.030,-0.799,-16.418,-2.075,2.991,14.458,-28.531,-102.585,-128305380748808945664.000,0,0,0,37.862743,-122.313202,-8.0,0.240,299.79,35,0.00,0.50,0.00
2025-06-06T17:55:24.628170,-0.017,0.036,-0.868,-8.850,-8.240,13.123,14.447,-27.378,-101.343,-128305380748808945664.000,0,0,0,37.862743,-122.313202,-8.0,0.240,299.79,35,0.00,0.50
2025-06-06T17:55:24.738480,0.007,-0.014,-0.948,-7.385,-8.301,15.991,14.447,-27.378,-101.343,-128305380748808945664.000,0,0,0,37.862743,-122.313202,-8.0,0.240,299.79,35,0.00,0.50
2025-06-06T17:55:24.821281,-0.019,-0.039,-0.984,-7.385,-8.301,15.991,161.889,-25.867,-98.383,-128305380748808945664.000,0,0,0,37.862743,-122.313202,-8.0,0.259,299.79,35,0.00,0.50
2025-06-06T17:55:24.935449,-0.033,-0.038,-0.996,-7.385,-8.301,15.991,14.469,-25.554,-97.449,-128305380748808945664.000,0,0,0,37.862743,-122.313202,-8.0,0.259,299.79,35,0.00,0.50
2025-06-06T17:55:25.028297,-0.027,-0.003,-0.975,-7.385,-8.301,15.991,14.447,-25.856,-97.416,-128305380748808945664.000,0,0,0,37.862743,-122.313202,-8.0,0.259,299.79,35,0.00,0.50
2025-06-06T17:55:25.136340,-0.021,0.055,-0.927,0.854,11.230,-6.348,14.447,-26.757,-97.965,-128305380748808945664.000,0,0,0,37.862743,-122.313202,-8.0,0.222,299.79,35,0.00,0.50
2025-06-06T17:55:25.220872,-0.010,0.084,-0.884,6.653,13.794,-2.197,161.312,-28.004,-98.383,-128305380748808945664.000,2632,0,0,37.862743,-122.313202,-8.0,0.203,299.79,35,0.00,0.50
2025-06-06T17:55:25.327199,0.025,0.082,-0.910,10.315,7.019,5.371,14.442,-28.976,-98.124,-128305380748808945664.000,0,0,0,37.862743,-122.313202,-8.0,0.203,299.79,35,0.00,0.50
2025-06-06T17:55:25.423661,0.042,-0.921,13.855,5.127,6.287,14.431,-29.619,-97.487,-128305380748808945664.000,0,0,0,37.862743,-122.313202,-8.0,0.203,299.79,35,0.00,0.50,0.00
2025-06-06T17:55:25.524448,0.039,-0.032,-0.900,12.085,0.916,1.160,14.469,-30.059,-97.152,-128305380748808945664.000,0,0,0,37.862743,-122.313202,-8.0,0.185,299.79,35,0.00,0.50
2025-06-06T17:55:25.638166,-0.031,-0.022,-0.899,12.085,0.916,1.160,14.474,-30.037,-97.158,-128305380748808945664.000,0,0,0,37.862740,-122.313202,-8.0,0.166,299.79,35,0.00,0.50
2025-06-06T17:55:25.719809,-0.008,-0.079,-0.883,12.085,0.916,1.160,14.447,-30.218,-96.993,-128305380748808945664.000,0,0,0,37.862740,-122.313202,-8.0,0.166,299.79,35,0.00,0.50
2025-06-06T17:55:25.832223,-0.010,-0.000,-0.872,12.085,0.916,1.160,14.458,-30.064,-96.218,-128305380748808945664.000,0,0,0,37.862740,-122.313202,-8.0,0.148,299.79,35,0.00,0.50
2025-06-06T17:55:25.919816,0.030,0.006,-0.873,-11.047,-3.357,12.268,14.469,-29.872,-95.109,-128305380748808945664.000,0,0,0,37.862740,-122.313202,-8.0,0.148,299.79,35,0.00,0.50
2025-06-06T17:55:26.022577,0.045,0.031,-0.897,-11.230,-7.019,10.864,14.458,-29.224,-93.889,-128305380748808945664.000,0,0,0,37.862740,-122.313202,-8.0,0.148,299.79,35,0.00,0.50
2025-06-06T17:55:26.106573,0.014,-0.936,-6.897,-10.498,4.883,14.447,-28.312,-93.120,-128305380748808945664.000,0,0,0,37.862740,-122.313202,-8.0,0.148,299.79,35,0.00,0.50,0.00
2025-06-06T17:55:26.228211,0.062,0.009,-0.971,-2.625,-12.451,-3.174,14.458,-28.312,-93.120,-128305380748808945664.000,0,0,0,37.862740,-122.313202,-8.0,0.148,299.79,35,0.00,0.50
2025-06-06T17:55:26.342142,0.037,-0.003,-0.985,0.793,-12.817,-9.949,14.458,-25.939,-93.867,-128305380748808945664.000,0,0,0,37.862740,-122.313202,-8.0,0.148,299.79,35,0.00,0.50
2025-06-06T17:55:26.422803,-0.008,-0.030,-0.971,0.793,-12.817,-9.949,14.447,-24.785,-94.944,-128305380748808945664.000,0,0,0,37.862740,-122.313202,-8.0,0.129,299.79,35,0.00,0.50
2025-06-06T17:55:26.528735,-0.056,-0.034,-0.931,0.793,-12.817,-9.949,14.469,-23.774,-95.609,-128305380748808945664.000,0,0,0,37.862740,-122.313202,-8.0,0.129,299.79,35,0.00,0.50
2025-06-06T17:55:26.614847,-0.055,-0.005,-0.896,0.793,-12.817,-9.949,14.447,-23.121,-95.630,-128305380748808945664.000,0,0,0,37.862740,-122.313202,-8.0,0.111,299.79,35,0.00,0.50
2025-06-06T17:55:26.725597,-0.050,0.011,-0.885,0.305,-1.038,1.465,14.458,-22.852,-95.460,-128305380748808945664.000,0,0,0,37.862740,-122.313202,-8.0,0.111,299.79,35,0.00,0.50
2025-06-06T17:55:26.810026,0.027,-0.891,5.615,0.916,-1.526,163.658,-22.846,-95.482,-128305380748808945664.000,0,0,0,37.862740,-122.313202,-8.0,0.111,299.79,35,0.00,0.50,0.00
2025-06-06T17:55:27.029153,0.011,0.022,-0.951,14.099,3.174,-5.615,14.458,-23.456,-96.443,-128305380748808945664.000,0,0,0,37.862740,-122.313202,-8.0,0.111,299.79,35,0.00,0.50
2025-06-06T17:55:27.230536,0.015,-0.024,-0.981,13.794,1.953,2.258,14.447,-24.022,-96.740,-128305380748808945664.000,0,0,0,37.862740,-122.313202,-8.0,0.092,299.79,35,0.00,0.50
2025-06-06T17:55:27.314156,-0.004,-0.043,-0.975,13.794,1.953,2.258,14.458,-24.148,-96.235,-128305380748808945664.000,0,0,0,37.862740,-122.313202,-8.0,0.092,299.79,35,0.00,0.50
2025-06-06T17:55:27.422713,-0.005,-0.057,-0.958,13.794,1.953,2.258,14.447,-24.280,-95.482,-128305380748808945664.000,0,0,0,37.862740,-122.313202,-8.0,0.074,299.79,35,0.00,0.50
2025-06-06T17:55:27.507214,-0.033,-0.963,-1.892,2.380,9.277,14.474,-24.384,-94.603,-128305380748808945664.000,0,0,0,37.862740,-122.313202,-8.0,0.074,299.79,35,0.00,0.50,0.00
2025-06-06T17:55:27.622321,0.039,-0.016,-0.958,-5.676,0.671,10.315,14.458,-24.406,-93.604,-128305380748808945664.000,0,0,0,37.862740,-122.313202,-8.0,0.074,299.79,35,0.00,0.50
2025-06-06T17:55:27.704556,-0.003,-0.944,-7.202,-2.747,10.559,170.420,-24.159,-92.554,-128305380748808945664.000,0,0,0,37.862740,-122.313202,-8.0,0.074,299.79,35,0.00,0.50,0.00
2025-06-06T17:55:27.812232,0.027,0.000,-0.919,-8.057,-5.493,10.132,14.442,-23.604,-91.511,-128305380748808945664.000,0,0,0,37.862740,-122.313202,-8.0,0.074,299.79,35,0.00,0.50
2025-06-06T17:55:27.923818,0.011,0.000,-0.895,-8.484,-8.301,8.423,14.474,-22.819,-90.582,-128305380748808945664.000,0,0,0,37.862740,-122.313202,-8.0,0.074,299.79,35,0.00,0.50
2025-06-06T17:55:28.007563,-0.010,0.017,-0.883,-7.935,-9.399,5.615,14.474,-21.857,-89.885,-128305380748808945664.000,0,0,0,37.862740,-122.313202,-8.0,0.092,299.79,35,0.00,0.50
2025-06-06T17:55:28.129242,-0.027,0.032,-0.888,-4.395,-9.155,0.671,14.458,-20.891,-89.621,-128305380748808945664.000,0,0,0,37.862740,-122.313202,-8.0,0.092,299.79,35,0.00,0.50
2025-06-06T17:55:28.207335,0.033,-0.917,-1.038,-7.629,-1.160,14.458,-20.891,-89.621,-128305380748808945664.000,0,0,0,37.862743,-122.313202,-8.0,0.092,299.79,35,0.00,0.50,0.00
2025-06-06T17:55:28.315525,-0.033,0.021,-0.962,1.892,-5.127,0.000,14.431,-19.391,-89.764,-128305380748808945664.000,0,0,0,37.862743,-122.313202,-8.0,0.129,299.79,35,0.00,0.50
2025-06-06T17:55:28.427193,0.004,0.029,-1.001,4.761,-2.991,0.610,14.469,-18.984,-89.714,-128305380748808945664.000,0,0,0,37.862743,-122.313202,-8.0,0.129,299.79,35,0.00,0.50
2025-06-06T17:55:28.509406,0.034,0.025,-1.011,7.324,-0.244,-2.319,14.458,-18.858,-89.775,-128305380748808945664.000,0,0,0,37.862743,-122.313202,-8.0,0.129,299.79,35,0.00,0.50
2025-06-06T17:55:28.619871,0.024,0.025,-1.017,10.986,1.160,-6.714,14.469,-19.067,-90.247,-128305380748808945664.000,0,0,0,37.862743,-122.313202,-8.0,0.148,299.79,35,0.00,0.50
2025-06-06T17:55:28.702472,0.040,0.007,-0.979,14.832,1.221,-9.705,14.458,-19.369,-91.170,-128305380748808945664.000,0,0,0,37.862743,-122.313202,-8.0,0.148,299.79,35,0.00,0.50
2025-06-06T17:55:28.810266,0.018,-0.002,-0.966,14.832,1.221,-9.705,14.458,-19.682,-92.411,-128305380748808945664.000,0,0,0,37.862743,-122.313202,-8.0,0.185,299.79,35,0.00,0.50
2025-06-06T17:55:28.904077,-0.030,-0.946,14.832,1.221,-9.705,14.442,-19.907,-93.214,-128305380748808945664.000,0,0,0,37.862743,-122.313202,-8.0,0.185,299.79,35,0.00,0.50,0.00
2025-06-06T17:55:29.013688,-0.032,-0.038,-0.935,14.832,1.221,-9.705,14.447,-19.858,-93.093,-128305380748808945664.000,0,0,0,37.862743,-122.313202,-8.0,0.203,299.79,35,0.00,0.50
2025-06-06T17:55:29.095826,-0.029,-0.920,14.832,1.221,-9.705,173.914,-19.600,-92.252,-128305380748808945664.000,0,0,0,37.862743,-122.313202,-8.0,0.203,299.79,35,0.00,0.50,0.00
2025-06-06T17:55:29.208339,-0.012,-0.019,-0.922,14.832,1.221,-9.705,14.442,-19.281,-91.126,-128305380748808945664.000,0,0,0,37.862743,-122.313202,-8.0,0.203,299.79,35,0.00,0.50
2025-06-06T17:55:29.314807,-0.006,-0.007,-0.932,14.832,1.221,-9.705,173.221,-18.929,-90.088,-128305380748808945664.000,0,0,0,37.862743,-122.313202,-8.0,0.203,299.79,35,0.00,0.50
2025-06-06T17:55:29.412058,-0.001,0.005,-0.943,-8.484,-1.892,9.705,14.458,-18.539,-89.116,-128305380748808945664.000,0,0,0,37.862743,-122.313202,-8.0,0.277,299.79,35,0.00,0.50
2025-06-06T17:55:29.520329,-0.009,0.013,-0.955,-7.812,-0.793,8.301,14.431,-18.204,-88.209,-128305380748808945664.000,0,0,0,37.862743,-122.313202,-8.0,0.277,299.79,35,0.00,0.50
2025-06-06T17:55:29.604234,0.007,-0.959,-5.554,0.916,5.127,14.458,-18.067,-87.545,-128305380748808945664.000,0,0,0,37.862743,-122.313202,-8.0,0.314,5.13,35,0.00,0.50,0.00
2025-06-06T17:55:29.712251,-0.004,0.009,-0.947,-2.502,2.441,-0.488,14.458,-18.188,-87.358,-128305380748808945664.000,0,0,0,37.862743,-122.313202,-8.0,0.314,5.13,35,0.00,0.50
2025-06-06T17:55:29.802185,-0.003,-0.929,-2.502,2.441,-0.488,14.458,-18.567,-87.698,-128305380748808945664.000,0,0,0,37.862743,-122.313202,-8.0,0.333,5.13,35,0.00,0.50,0.00
2025-06-06T17:55:29.912379,-0.005,-0.008,-0.928,-2.502,2.441,-0.488,14.447,-18.984,-88.094,-128305380748808945664.000,0,0,0,37.862743,-122.313202,-8.0,0.333,5.13,35,0.00,0.50
2025-06-06T17:55:29.993933,-0.012,-0.953,-2.502,2.441,-0.488,170.458,-19.314,-88.209,-128305380748808945664.000,0,0,0,37.862743,-122.313202,-8.0,0.333,5.13,35,0.00,0.50,0.00
2025-06-06T17:55:30.120335,0.013,-0.012,-0.983,-5.005,3.479,3.296,14.458,-19.594,-87.979,-128305380748808945664.000,0,0,0,37.862743,-122.313202,-8.0,0.333,5.13,35,0.00,0.50
2025-06-06T17:55:30.218971,0.019,-0.008,-1.011,-5.371,4.700,2.869,14.458,-19.962,-87.649,-128305380748808945664.000,0,0,0,37.862743,-122.313202,-8.0,0.314,5.13,35,0.00,0.50
2025-06-06T17:55:30.309429,0.017,-0.000,-1.014,-4.333,5.859,1.099,14.447,-20.479,-87.468,-128305380748808945664.000,0,0,0,37.862743,-122.313202,-8.0,0.314,5.13,35,0.00,0.50
2025-06-06T17:55:30.408575,0.000,0.011,-0.990,-3.052,7.446,-0.427,14.447,-21.132,-87.451,-128305380748808945664.000,0,0,0,37.862743,-122.313202,-8.0,0.314,5.13,35,0.00,0.50
2025-06-06T17:55:30.491372,-0.021,0.013,-0.948,-1.770,8.606,-1.038,14.458,-21.923,-87.545,-128305380748808945664.000,0,0,0,37.862743,-122.313202,-8.0,0.314,5.13,35,0.00,0.50
2025-06-06T17:55:30.604176,-0.037,0.011,-0.897,-0.671,8.789,-0.244,14.458,-22.786,-87.605,-128305380748808945664.000,0,0,0,37.862743,-122.313202,-8.0,0.314,-306.42,35,0.00,0.50
2025-06-06T17:55:30.696182,-0.046,0.018,-0.865,-0.671,8.789,-0.244,14.458,-23.654,-87.621,-128305380748808945664.000,0,0,0,37.862743,-122.313202,-8.0,0.314,-306.42,35,0.00,0.50
2025-06-06T17:55:30.805473,-0.064,0.092,-0.863,0.671,6.470,11.292,14.442,-24.445,-87.297,-128305380748808945664.000,0,0,0,37.862747,-122.313202,-8.0,0.333,-310.35,35,0.00,0.50
2025-06-06T17:55:30.892587,-0.018,0.023,-0.896,-0.977,6.775,8.606,14.458,-25.164,-86.320,-128305380748808945664.000,0,0,0,37.862747,-122.313202,-8.0,0.333,-310.35,35,0.00,0.50
2025-06-06T17:55:31.007975,0.027,-0.012,-0.953,1.587,6.104,13.184,14.458,-25.659,-85.259,-128305380748808945664.000,0,0,0,37.862747,-122.313202,-8.0,0.314,-310.35,35,0.00,0.50
2025-06-06T17:55:31.089710,-0.001,-0.916,0.732,3.052,9.888,169.310,-26.131,-84.095,-128305380748808945664.000,0,0,0,37.862747,-122.313202,-8.0,0.314,-310.35,35,0.00,0.50,0.00
2025-06-06T17:55:31.211306,0.022,-0.000,-0.949,-4.395,2.441,9.827,14.458,-26.296,-83.117,-128305380748808945664.000,0,0,0,37.862747,-122.313202,-8.0,0.314,-310.35,35,0.00,0.50
2025-06-06T17:55:31.315381,0.047,-0.048,-0.964,-6.042,-1.526,12.085,14.458,-26.296,-83.117,-128305380748808945664.000,2634,0,0,37.862747,-122.313202,-8.0,0.314,-310.35,35,0.00,0.50
2025-06-06T17:55:31.397994,0.048,-0.015,-0.966,-9.644,-3.906,13.672,14.474,-25.763,-80.689,-128305380748808945664.000,0,0,0,37.862743,-122.313202,-8.0,0.259,-310.35,35,0.00,0.50
2025-06-06T17:55:31.502285,0.037,-0.021,-0.960,-12.695,-5.371,14.038,14.474,-25.170,-79.288,-128305380748808945664.000,0,0,0,37.862743,-122.313202,-8.0,0.259,-310.35,35,0.00,0.50
2025-06-06T17:55:31.591963,0.027,0.002,-0.949,-11.658,-7.080,11.597,14.458,-24.412,-78.008,-128305380748808945664.000,0,0,0,37.862743,-122.313202,-8.0,0.222,-310.35,35,0.00,0.50
2025-06-06T17:55:31.707588,0.017,0.012,-0.935,-10.132,-7.385,6.653,14.458,-23.632,-77.135,-128305380748808945664.000,0,0,0,37.862743,-122.313202,-8.0,0.222,-310.35,35,0.00,0.50
2025-06-06T17:55:31.787224,-0.003,0.016,-0.938,-7.141,-6.470,2.075,14.458,-22.934,-76.761,-128305380748808945664.000,0,0,0,37.862743,-122.313202,-8.0,0.185,-310.35,35,0.00,0.50
2025-06-06T17:55:31.905073,-0.015,0.022,-0.941,-3.967,-4.822,-0.427,14.458,-22.934,-76.761,-128305380748808945664.000,0,0,0,37.862743,-122.313202,-8.0,0.185,-310.35,35,0.00,0.50
2025-06-06T17:55:31.988927,0.023,-0.931,-1.343,-2.197,-1.160,14.469,-22.934,-76.761,-128305380748808945664.000,0,0,0,37.862743,-122.313202,-8.0,0.185,-310.35,35,0.00,0.50,0.00
2025-06-06T17:55:32.104562,-0.023,0.027,-0.920,1.953,-0.061,-1.099,14.458,-21.857,-76.937,-128305380748808945664.000,0,0,0,37.862747,-122.313202,-8.0,0.185,-310.35,35,0.00,0.50
2025-06-06T17:55:32.187716,0.035,-0.912,6.653,1.099,-2.747,165.322,-21.923,-77.130,-128305380748808945664.000,0,0,0,37.862747,-122.313202,-8.0,0.185,-310.35,35,0.00,0.50,0.00
2025-06-06T17:55:32.303823,0.005,0.029,-0.927,11.780,1.709,-6.531,14.458,-22.126,-77.624,-128305380748808945664.000,0,0,0,37.862747,-122.313210,-8.0,0.203,-310.35,35,0.00,0.50
2025-06-06T17:55:32.415200,0.002,0.000,-0.953,14.221,2.258,-8.789,14.458,-22.401,-78.437,-128305380748808945664.000,0,0,0,37.862747,-122.313210,-8.0,0.222,-310.35,35,0.00,0.50
2025-06-06T17:55:32.494949,0.013,-0.028,-0.985,13.550,2.136,-7.202,14.447,-22.725,-79.261,-128305380748808945664.000,0,0,0,37.862747,-122.313210,-8.0,0.222,-310.35,35,0.00,0.50
2025-06-06T17:55:32.589236,0.037,-0.022,-1.000,10.742,0.000,-1.648,14.469,-22.912,-79.673,-128305380748808945664.000,0,0,0,37.862747,-122.313210,-8.0,0.203,-310.35,35,0.00,0.50
2025-06-06T17:55:32.691638,-0.021,-0.986,5.920,-1.038,4.395,14.469,-22.874,-79.470,-128305380748808945664.000,0,0,0,37.862747,-122.313210,-8.0,0.203,-310.35,35,0.00,0.50,0.00
2025-06-06T17:55:32.798136,0.015,-0.014,-0.964,0.977,-2.747,9.155,14.469,-22.577,-78.734,-128305380748808945664.000,0,0,0,37.862747,-122.313210,-8.0,0.222,-310.35,35,0.00,0.50
2025-06-06T17:55:32.876922,-0.007,-0.924,-1.526,-4.822,11.658,14.447,-22.017,-77.635,-128305380748808945664.000,0,0,0,37.862747,-122.313210,-8.0,0.222,-310.35,35,0.00,0.50,0.00
2025-06-06T17:55:32.986037,0.008,0.022,-0.890,-0.427,-8.545,10.132,14.442,-21.149,-76.525,-128305380748808945664.000,0,0,0,37.862747,-122.313202,-8.0,0.259,-310.35,35,0.00,0.50
2025-06-06T17:55:33.107021,0.008,0.022,-0.883,0.610,-10.742,5.737,14.447,-21.149,-76.525,-128305380748808945664.000,0,0,0,37.862747,-122.313202,-8.0,0.259,-310.35,35,0.00,0.50
2025-06-06T17:55:33.193666,0.010,-0.921,2.869,-11.841,2.136,14.469,-18.918,-75.399,-128305380748808945664.000,0,0,0,37.862747,-122.313202,-8.0,0.296,-310.35,35,0.00,0.50,0.00
2025-06-06T17:55:33.292774,-0.004,0.017,-0.958,6.653,-13.733,-0.610,14.458,-17.600,-75.355,-128305380748808945664.000,0,0,0,37.862747,-122.313202,-8.0,0.296,-310.35,35,0.00,0.50
2025-06-06T17:55:33.381465,0.020,-0.981,7.874,-11.353,-2.197,172.793,-16.392,-75.520,-128305380748808945664.000,0,0,0,37.862747,-122.313202,-8.0,0.296,-310.35,35,0.00,0.50,0.00
2025-06-06T17:55:33.506743,-0.013,0.006,-0.993,8.850,-8.972,-3.479,14.474,-15.474,-75.844,-128305380748808945664.000,0,0,0,37.862747,-122.313202,-8.0,0.333,-310.35,35,0.00,0.50
2025-06-06T17:55:33.610950,-0.002,0.000,-0.982,11.536,-9.338,-3.479,14.458,-14.661,-76.201,-128305380748808945664.000,0,0,0,37.862747,-122.313202,-8.0,0.351,-310.35,35,0.00,0.50
2025-06-06T17:55:33.701193,0.013,-0.001,-0.956,10.803,-8.118,-4.089,14.474,-13.925,-76.586,-128305380748808945664.000,0,0,0,37.862747,-122.313202,-8.0,0.351,-310.35,35,0.00,0.50
2025-06-06T17:55:33.796816,0.002,-0.021,-0.946,7.996,-8.240,-3.418,14.469,-13.239,-76.970,-128305380748808945664.000,0,0,0,37.862747,-122.313202,-8.0,0.351,-310.35,35,0.00,0.50
2025-06-06T17:55:33.890174,-0.002,-0.027,-0.951,7.996,-8.240,-3.418,176.984,-12.442,-77.190,-128305380748808945664.000,0,0,0,37.862747,-122.313202,-8.0,0.351,-310.35,35,0.00,0.50
2025-06-06T17:55:34.004760,0.008,-0.001,-0.955,2.991,-9.277,-1.038,14.447,-11.547,-77.283,-128305380748808945664.000,0,0,0,37.862747,-122.313202,-8.0,0.333,-310.35,35,0.00,0.50
2025-06-06T17:55:34.078321,0.011,-0.963,1.953,-8.362,-2.197,14.458,-10.767,-77.459,-128305380748808945664.000,0,0,0,37.862747,-122.313202,-8.0,0.333,-310.35,35,0.00,0.50,0.00
2025-06-06T17:55:34.190068,0.001,0.011,-0.965,3.784,-8.911,-2.014,14.458,-10.003,-77.673,-128305380748808945664.000,0,0,0,37.862747,-122.313202,-8.0,0.351,-310.35,35,0.00,0.50
2025-06-06T17:55:34.276999,0.018,-0.955,5.066,-7.568,-2.319,178.187,-9.240,-77.871,-128305380748808945664.000,0,0,0,37.862747,-122.313202,-8.0,0.351,-310.35,35,0.00,0.50,0.00
2025-06-06T17:55:34.387402,-0.023,0.002,-0.937,5.249,-4.333,-5.371,14.458,-8.756,-78.278,-128305380748808945664.000,0,0,0,37.862747,-122.313202,-8.0,0.370,-310.35,35,0.00,0.50
2025-06-06T17:55:34.500972,-0.033,-0.010,-0.907,5.249,-4.333,-5.371,14.485,-8.575,-78.970,-128305380748808945664.000,0,0,0,37.862747,-122.313202,-8.0,0.370,-310.35,35,0.00,0.50
2025-06-06T17:55:34.590243,-0.022,0.006,-0.879,5.798,-2.808,-8.301,14.469,-8.492,-79.788,-128305380748808945664.000,0,0,0,37.862747,-122.313202,-8.0,0.370,-310.35,35,0.00,0.50
2025-06-06T17:55:34.697183,-0.018,0.003,-0.874,3.296,-3.052,-6.531,14.447,-8.448,-80.541,-128305380748808945664.000,0,0,0,37.862747,-122.313202,-8.0,0.370,-310.35,35,0.00,0.50
2025-06-06T17:55:34.780993,-0.021,-0.011,-0.892,3.296,-3.052,-6.531,14.469,-8.157,-80.931,-128305380748808945664.000,0,0,0,37.862747,-122.313202,-8.0,0.333,-310.35,35,0.00,0.50
2025-06-06T17:55:34.891883,-0.005,-0.014,-0.925,3.296,-3.052,-6.531,14.458,-7.586,-80.848,-128305380748808945664.000,0,0,0,37.862747,-122.313202,-8.0,0.333,-310.35,35,0.00,0.50
2025-06-06T17:55:34.979580,0.002,-0.021,-0.968,-5.859,-4.150,4.578,14.447,-6.998,-80.480,-128305380748808945664.000,0,0,0,37.862747,-122.313202,-8.0,0.296,-310.35,35,0.00,0.50
